location_name,latitude,longitude,website,location_address
Bowbar,50.0828,14.4482,bowbar.cz,"Bořivojova 783"
"Victoria Bowling",50.0851,14.4454,victoriabowling.cz,"Seifertova 49"
"Bowling Smíchov",50.0716,14.4059,bowlingsmichov.cz,"Na Bělidle 25"
"Bowling v továrně",50.0647,14.4426,bowlingvtovarne.cz,"Vlastislavova 603"
"Xbowling Strašnice",50.0761,14.4897,strasnice.xbowling.cz,"Starostrašnická 1002/58"
"Xbowling Žižkov",50.0851,14.4655,zizkov.xbowling.cz,"Pitterova 2878/5"
"Aboslutní bowling",50.1057,14.447,absolutnibowling.cz,"Osadní 1053/28"
"Na Ovčíně",50.0539,14.4876,ovcin.cz,"Záběhlická 3"
